{"features": [{"geometry": {"coordinates": [-122.2862544, 47.5477425], "type": "Point"}, "properties": {"Average Score": 42.0, "High Score": 145, "Business Name": "THANH THAO", "Total Inspections": 4}, "bbox": [-122.2876122802915, 47.5463915697085, -122.2849143197085, 47.5490895302915], "type": "Feature"}, {"geometry": {"coordinates": [-122.2847487, 47.5450204], "type": "Point"}, "properties": {"Average Score": 33.72727272727273, "High Score": 120, "Business Name": "RAINIER BBQ", "Total Inspections": 11}, "bbox": [-122.2860976802915, 47.5436714197085, -122.2833997197085, 47.5463693802915], "type": "Feature"}, {"geometry": {"coordinates": [-122.2846681, 47.545196], "type": "Point"}, "properties": {"Average Score": 37.57142857142857, "High Score": 118, "Business Name": "RAINIER RESTAURANT", "Total Inspections": 7}, "bbox": [-122.2860170302915, 47.5438469697085, -122.2833190697085, 47.5465449302915], "type": "Feature"}, {"geometry": {"coordinates": [-122.2826734, 47.538508], "type": "Point"}, "properties": {"Average Score": 57.5, "High Score": 115, "Business Name": "FOO LAM CHINESE RESTAURANT", "Total Inspections": 2}, "bbox": [-122.2840223802915, 47.5371590197085, -122.2813244197085, 47.5398569802915], "type": "Feature"}, {"geometry": {"coordinates": [-122.2879537, 47.5688609], "type": "Point"}, "properties": {"Average Score": 52.5, "High Score": 95, "Business Name": "SAFEWAY STORE #1508", "Total Inspections": 4}, "bbox": [-122.2893026302915, 47.5675119697085, -122.2866046697085, 47.5702099302915], "type": "Feature"}, {"geometry": {"coordinates": [-122.2862084, 47.547647], "type": "Point"}, "properties": {"Average Score": 39.333333333333336, "High Score": 95, "Business Name": "TONY'S BAKERY & DELI", "Total Inspections": 6}, "bbox": [-122.2875662802915, 47.5462960697085, -122.2848683197085, 47.5489940302915], "type": "Feature"}, {"geometry": {"coordinates": [-122.2703779, 47.5328096], "type": "Point"}, "properties": {"Average Score": 34.8, "High Score": 93, "Business Name": "YUSRA AND SABAH RESTAURANT", "Total Inspections": 5}, "bbox": [-122.2717269302915, 47.53146066970849, -122.2690289697085, 47.53415863029149], "type": "Feature"}, {"geometry": {"coordinates": [-122.2832329, 47.5561117], "type": "Point"}, "properties": {"Average Score": 30.25, "High Score": 88, "Business Name": "KEZIRA CAFE", "Total Inspections": 4}, "bbox": [-122.2845818802915, 47.5547627697085, -122.2818839197085, 47.5574607302915], "type": "Feature"}, {"geometry": {"coordinates": [-122.2888727, 47.5522868], "type": "Point"}, "properties": {"Average Score": 47.0, "High Score": 85, "Business Name": "AMMANA HOUSEWARE & GROCERY", "Total Inspections": 4}, "bbox": [-122.2902217302915, 47.55093781970849, -122.2875237697085, 47.55363578029149], "type": "Feature"}, {"geometry": {"coordinates": [-122.2878879, 47.5651843], "type": "Point"}, "properties": {"Average Score": 26.5, "High Score": 83, "Business Name": "JUMBO CHINESE RESTAURANT", "Total Inspections": 6}, "bbox": [-122.2892368802915, 47.5638353197085, -122.2865389197085, 47.5665332802915], "type": "Feature"}, {"properties": {"Average Score": 44.333333333333336, "High Score": 83, "Business Name": "SAHRA INT MARKET", "Total Inspections": 3}, "type": "Feature"}, {"properties": {"Average Score": 29.6, "High Score": 83, "Business Name": "TACO GOL TAQUERIA  @  9447 Rainier Ave S", "Total Inspections": 5}, "type": "Feature"}, {"geometry": {"coordinates": [-122.283898, 47.54157], "type": "Point"}, "properties": {"Average Score": 26.666666666666668, "High Score": 80, "Business Name": "JAZERA RESTAURANT", "Total Inspections": 3}, "bbox": [-122.2852469802915, 47.5402210197085, -122.2825490197085, 47.5429189802915], "type": "Feature"}, {"geometry": {"coordinates": [-122.2826734, 47.538508], "type": "Point"}, "properties": {"Average Score": 45.0, "High Score": 80, "Business Name": "TAMMY'S DELI", "Total Inspections": 5}, "bbox": [-122.2840224302915, 47.5371590197085, -122.2813244697085, 47.5398569802915], "type": "Feature"}, {"geometry": {"coordinates": [-122.270415, 47.5337729], "type": "Point"}, "properties": {"Average Score": 21.75, "High Score": 75, "Business Name": "MADDA WALAABY", "Total Inspections": 4}, "bbox": [-122.2717639802915, 47.53242391970851, -122.2690660197085, 47.53512188029151], "type": "Feature"}, {"geometry": {"coordinates": [-122.2827933, 47.5410143], "type": "Point"}, "properties": {"Average Score": 23.25, "High Score": 75, "Business Name": "MOMONA CAFE & RESTAURANT", "Total Inspections": 4}, "bbox": [-122.2841422802915, 47.5396653197085, -122.2814443197085, 47.5423632802915], "type": "Feature"}, {"geometry": {"coordinates": [-122.2855273, 47.5581949], "type": "Point"}, "properties": {"Average Score": 41.0, "High Score": 73, "Business Name": "COLUMBIA CITY BAKERY", "Total Inspections": 3}, "bbox": [-122.2868762802915, 47.55684591970849, -122.2841783197085, 47.55954388029149], "type": "Feature"}, {"geometry": {"coordinates": [-122.2695781, 47.521154], "type": "Point"}, "properties": {"Average Score": 36.2, "High Score": 73, "Business Name": "PHO VAN VIETNAMESE RESTAURANT", "Total Inspections": 5}, "bbox": [-122.2709270802915, 47.51980501970851, -122.2682291197085, 47.52250298029151], "type": "Feature"}, {"geometry": {"coordinates": [-122.2795177, 47.5234831], "type": "Point"}, "properties": {"Average Score": 32.0, "High Score": 65, "Business Name": "VEGETABLE BIN", "Total Inspections": 3}, "bbox": [-122.2808666302915, 47.5221341197085, -122.2781686697085, 47.5248320802915], "type": "Feature"}, {"geometry": {"coordinates": [-122.2829532, 47.5391951], "type": "Point"}, "properties": {"Average Score": 41.666666666666664, "High Score": 60, "Business Name": "BA MIEN SEAFOOD MARKET -  DELI", "Total Inspections": 3}, "bbox": [-122.2843021802915, 47.53784606970851, -122.2816042197085, 47.5405440302915], "type": "Feature"}, {"geometry": {"coordinates": [-122.2699066, 47.5367269], "type": "Point"}, "properties": {"Average Score": 32.833333333333336, "High Score": 60, "Business Name": "TAQUERIA EL RANCHERO @  520 12th Ave S", "Total Inspections": 6}, "bbox": [-122.2712555302915, 47.5353778697085, -122.2685575697085, 47.5380758302915], "type": "Feature"}, {"geometry": {"coordinates": [-122.2650097, 47.5200973], "type": "Point"}, "properties": {"Average Score": 27.0, "High Score": 58, "Business Name": "HONG KONG SEAFOOD", "Total Inspections": 4}, "bbox": [-122.2663586802915, 47.5187483697085, -122.2636607197085, 47.5214463302915], "type": "Feature"}, {"properties": {"Average Score": 38.75, "High Score": 55, "Business Name": "ASSABR MINI MART", "Total Inspections": 4}, "type": "Feature"}, {"properties": {"Average Score": 22.142857142857142, "High Score": 55, "Business Name": "ISLAND SOUL RESTAURANT", "Total Inspections": 7}, "type": "Feature"}, {"properties": {"Average Score": 20.333333333333332, "High Score": 53, "Business Name": "BOTH WAYS CATAERING CO.", "Total Inspections": 3}, "type": "Feature"}, {"properties": {"Average Score": 35.0, "High Score": 50, "Business Name": "BA MIEN SEAFOOD MARKET", "Total Inspections": 4}, "type": "Feature"}, {"properties": {"Average Score": 20.6, "High Score": 50, "Business Name": "CAJUN CRAWFISH", "Total Inspections": 5}, "type": "Feature"}, {"properties": {"Average Score": 24.25, "High Score": 50, "Business Name": "KING DONUT", "Total Inspections": 4}, "type": "Feature"}, {"properties": {"Average Score": 34.4, "High Score": 50, "Business Name": "OLYMPIC EXPRESS", "Total Inspections": 5}, "type": "Feature"}, {"properties": {"Average Score": 33.0, "High Score": 50, "Business Name": "PARADISE RESTAURANT", "Total Inspections": 4}, "type": "Feature"}, {"geometry": {"coordinates": [-122.2764617, 47.5236923], "type": "Point"}, "properties": {"Average Score": 50.0, "High Score": 50, "Business Name": "SHANGANI COFFEE SHOP & GROCERY", "Total Inspections": 1}, "bbox": [-122.2778198302915, 47.5223419197085, -122.2751218697085, 47.5250398802915], "type": "Feature"}, {"geometry": {"coordinates": [-122.2852272, 47.5575516], "type": "Point"}, "properties": {"Average Score": 35.0, "High Score": 50, "Business Name": "SPICE ROOM", "Total Inspections": 3}, "bbox": [-122.2865761802915, 47.5562026197085, -122.2838782197085, 47.5589005802915], "type": "Feature"}, {"geometry": {"coordinates": [-122.2840305, 47.5419005], "type": "Point"}, "properties": {"Average Score": 25.0, "High Score": 50, "Business Name": "THAI SAVON RESTAURANT", "Total Inspections": 2}, "bbox": [-122.2853794802915, 47.5405515197085, -122.2826815197085, 47.54324948029149], "type": "Feature"}, {"geometry": {"coordinates": [-122.2782629, 47.551576], "type": "Point"}, "properties": {"Average Score": 31.0, "High Score": 47, "Business Name": "UNION BAR- HILLMAN CITY", "Total Inspections": 4}, "bbox": [-122.2796118802915, 47.5502270197085, -122.2769139197085, 47.5529249802915], "type": "Feature"}, {"geometry": {"coordinates": [-122.2804371, 47.5365644], "type": "Point"}, "properties": {"Average Score": 21.333333333333332, "High Score": 46, "Business Name": "OTHELLO TERIYAKI & WOK", "Total Inspections": 3}, "bbox": [-122.2817860802915, 47.53521541970851, -122.2790881197085, 47.53791338029151], "type": "Feature"}, {"geometry": {"coordinates": [-122.2903639, 47.5573255], "type": "Point"}, "properties": {"Average Score": 26.25, "High Score": 45, "Business Name": "BILLIARD HOANG/POOL HALL", "Total Inspections": 4}, "bbox": [-122.2917128802915, 47.55597651970849, -122.2890149197085, 47.55867448029149], "type": "Feature"}, {"geometry": {"coordinates": [-122.2855978, 47.5583217], "type": "Point"}, "properties": {"Average Score": 37.5, "High Score": 45, "Business Name": "BOB'S QUALITY MEATS", "Total Inspections": 2}, "bbox": [-122.2869468302915, 47.5569727697085, -122.2842488697085, 47.5596707302915], "type": "Feature"}, {"geometry": {"coordinates": [-122.2700728, 47.556106], "type": "Point"}, "properties": {"Average Score": 37.5, "High Score": 45, "Business Name": "CAFFE VITA", "Total Inspections": 2}, "bbox": [-122.2714217802915, 47.5547570197085, -122.2687238197085, 47.5574549802915], "type": "Feature"}, {"geometry": {"coordinates": [-122.284673, 47.5577039], "type": "Point"}, "properties": {"Average Score": 10.0, "High Score": 45, "Business Name": "LOTTIE'S LOUNGE", "Total Inspections": 5}, "bbox": [-122.2860219302915, 47.5563549697085, -122.2833239697085, 47.5590529302915], "type": "Feature"}, {"geometry": {"coordinates": [-122.2632136, 47.51981970000001], "type": "Point"}, "properties": {"Average Score": 21.25, "High Score": 45, "Business Name": "MOBILE MAYAN #2 (KC308) @ ROUTE 206-725-5510", "Total Inspections": 4}, "bbox": [-122.2645626302915, 47.5184707197085, -122.2618646697085, 47.5211686802915], "type": "Feature"}, {"geometry": {"coordinates": [-122.2682245, 47.5210202], "type": "Point"}, "properties": {"Average Score": 32.5, "High Score": 45, "Business Name": "SAFEWAY - CHINA EXPRESS/ DELI", "Total Inspections": 4}, "bbox": [-122.2695734802915, 47.51967121970851, -122.2668755197085, 47.52236918029151], "type": "Feature"}, {"geometry": {"coordinates": [-122.2702393, 47.5299419], "type": "Point"}, "properties": {"Average Score": 28.333333333333332, "High Score": 45, "Business Name": "SUNSET DELI & CAFE", "Total Inspections": 3}, "bbox": [-122.2715882802915, 47.5285928697085, -122.2688903197085, 47.5312908302915], "type": "Feature"}, {"geometry": {"coordinates": [-122.2843265, 47.5466341], "type": "Point"}, "properties": {"Average Score": 32.666666666666664, "High Score": 43, "Business Name": "Q BAKERY", "Total Inspections": 3}, "bbox": [-122.2856755302915, 47.5452851697085, -122.2829775697085, 47.5479831302915], "type": "Feature"}, {"geometry": {"coordinates": [-122.2839894, 47.5559841], "type": "Point"}, "properties": {"Average Score": 20.166666666666668, "High Score": 43, "Business Name": "WATERCRESS VIETNAMESE BISTRO", "Total Inspections": 6}, "bbox": [-122.2853383802915, 47.55463511970849, -122.2826404197085, 47.55733308029149], "type": "Feature"}, {"geometry": {"coordinates": [-122.2871026, 47.5500492], "type": "Point"}, "properties": {"Average Score": 13.333333333333334, "High Score": 40, "Business Name": "FILIPINO COMMUNITY OF SEATTLE", "Total Inspections": 3}, "bbox": [-122.2884515802915, 47.54870021970849, -122.2857536197085, 47.55139818029149], "type": "Feature"}, {"geometry": {"coordinates": [-122.2859785, 47.5475654], "type": "Point"}, "properties": {"Average Score": 30.333333333333332, "High Score": 40, "Business Name": "JOY PALACE", "Total Inspections": 3}, "bbox": [-122.2873274802915, 47.54621641970849, -122.2846295197085, 47.54891438029149], "type": "Feature"}, {"geometry": {"coordinates": [-122.2775851, 47.55168380000001], "type": "Point"}, "properties": {"Average Score": 17.0, "High Score": 40, "Business Name": "MAXIM'S DANCING CLUB", "Total Inspections": 4}, "bbox": [-122.2789340302915, 47.5503348197085, -122.2762360697085, 47.5530327802915], "type": "Feature"}, {"geometry": {"coordinates": [-122.283898, 47.54157], "type": "Point"}, "properties": {"Average Score": 24.5, "High Score": 40, "Business Name": "MOGA MINI MARKET", "Total Inspections": 4}, "bbox": [-122.2852469802915, 47.5402210197085, -122.2825490197085, 47.5429189802915], "type": "Feature"}, {"geometry": {"coordinates": [-122.2865794, 47.5602478], "type": "Point"}, "properties": {"Average Score": 40.0, "High Score": 40, "Business Name": "PHO BO RESTAURANT", "Total Inspections": 1}, "bbox": [-122.2879365802915, 47.5588957197085, -122.2852386197085, 47.5615936802915], "type": "Feature"}, {"geometry": {"coordinates": [-122.2704348, 47.55631169999999], "type": "Point"}, "properties": {"Average Score": 20.0, "High Score": 40, "Business Name": "PIZZUTO'S SEWARD PARK", "Total Inspections": 4}, "bbox": [-122.2717929302915, 47.5549611697085, -122.2690949697085, 47.5576591302915], "type": "Feature"}], "type": "FeatureCollection"}